{
  "schema_version": 1,
  "source_name": "OurAirports",
  "source_url": "https://ourairports.com/data/",
  "source_license": "public domain / no guarantee of accuracy",
  "retrieved_date": "2026-05-09",
  "generation_method": "manual mini snapshot for Gate 2 MVP",
  "snapshot_version": 1,
  "notes": "Manual mini snapshot derived from OurAirports airport data for Gate 2 MVP coverage. See https://ourairports.com/help/data-dictionary.html for the data dictionary. OurAirports publishes the data as public domain with no guarantee of accuracy.",
  "version": 1,
  "airports": [
    {"iata": "CXR", "name": "Cam Ranh International Airport", "city": "Nha Trang", "country": "Vietnam", "latitude": 11.9982, "longitude": 109.2194},
    {"iata": "SGN", "name": "Tan Son Nhat International Airport", "city": "Ho Chi Minh City", "country": "Vietnam", "latitude": 10.8188, "longitude": 106.6520},
    {"iata": "HAN", "name": "Noi Bai International Airport", "city": "Hanoi", "country": "Vietnam", "latitude": 21.2212, "longitude": 105.8072},
    {"iata": "DAD", "name": "Da Nang International Airport", "city": "Da Nang", "country": "Vietnam", "latitude": 16.0439, "longitude": 108.1994},
    {"iata": "PQC", "name": "Phu Quoc International Airport", "city": "Phu Quoc", "country": "Vietnam", "latitude": 10.1698, "longitude": 103.9931},
    {"iata": "SIN", "name": "Singapore Changi Airport", "city": "Singapore", "country": "Singapore", "latitude": 1.3644, "longitude": 103.9915},
    {"iata": "BKK", "name": "Suvarnabhumi Airport", "city": "Bangkok", "country": "Thailand", "latitude": 13.6900, "longitude": 100.7501},
    {"iata": "KUL", "name": "Kuala Lumpur International Airport", "city": "Kuala Lumpur", "country": "Malaysia", "latitude": 2.7456, "longitude": 101.7072},
    {"iata": "TPE", "name": "Taiwan Taoyuan International Airport", "city": "Taipei", "country": "Taiwan", "latitude": 25.0777, "longitude": 121.2328},
    {"iata": "HKG", "name": "Hong Kong International Airport", "city": "Hong Kong", "country": "Hong Kong", "latitude": 22.3080, "longitude": 113.9185},
    {"iata": "ICN", "name": "Incheon International Airport", "city": "Seoul", "country": "South Korea", "latitude": 37.4602, "longitude": 126.4407},
    {"iata": "NRT", "name": "Narita International Airport", "city": "Tokyo", "country": "Japan", "latitude": 35.7720, "longitude": 140.3929},
    {"iata": "DOH", "name": "Hamad International Airport", "city": "Doha", "country": "Qatar", "latitude": 25.2731, "longitude": 51.6081},
    {"iata": "DXB", "name": "Dubai International Airport", "city": "Dubai", "country": "United Arab Emirates", "latitude": 25.2532, "longitude": 55.3657},
    {"iata": "LAX", "name": "Los Angeles International Airport", "city": "Los Angeles", "country": "United States", "latitude": 33.9425, "longitude": -118.4081},
    {"iata": "SFO", "name": "San Francisco International Airport", "city": "San Francisco", "country": "United States", "latitude": 37.6213, "longitude": -122.3790},
    {"iata": "JFK", "name": "John F. Kennedy International Airport", "city": "New York", "country": "United States", "latitude": 40.6413, "longitude": -73.7781},
    {"iata": "LHR", "name": "Heathrow Airport", "city": "London", "country": "United Kingdom", "latitude": 51.4700, "longitude": -0.4543},
    {"iata": "CDG", "name": "Charles de Gaulle Airport", "city": "Paris", "country": "France", "latitude": 49.0097, "longitude": 2.5479},
    {"iata": "FRA", "name": "Frankfurt Airport", "city": "Frankfurt", "country": "Germany", "latitude": 50.0379, "longitude": 8.5622},
    {"iata": "SYD", "name": "Sydney Kingsford Smith Airport", "city": "Sydney", "country": "Australia", "latitude": -33.9399, "longitude": 151.1753},
    {"iata": "MEL", "name": "Melbourne Airport", "city": "Melbourne", "country": "Australia", "latitude": -37.6733, "longitude": 144.8433}
  ]
}
